{
"type": "FeatureCollection",
"name": "stadiums_4326",
"crs": { "type": "name", "properties": { "name": "urn:ogc:def:crs:OGC:1.3:CRS84" } },
"features": [
{ "type": "Feature", "properties": { "NAME": "AMERICAN AIRLINES ARENA", "TEAM": "MIAMI HEAT" }, "geometry": { "type": "Point", "coordinates": [ -80.187918845020249, 25.781330567365515 ] } },
{ "type": "Feature", "properties": { "NAME": "GOLDEN 1 CENTER", "TEAM": "SACRAMENTO KINGS" }, "geometry": { "type": "Point", "coordinates": [ -121.499657000023404, 38.580329999716582 ] } },
{ "type": "Feature", "properties": { "NAME": "VIVINT ARENA", "TEAM": "UTAH JAZZ" }, "geometry": { "type": "Point", "coordinates": [ -111.901025101102022, 40.768205528803819 ] } },
{ "type": "Feature", "properties": { "NAME": "ROCKET MORTGAGE FIELDHOUSE", "TEAM": "CLEVELAND CAVALIERS" }, "geometry": { "type": "Point", "coordinates": [ -81.688180020398278, 41.496534001333544 ] } },
{ "type": "Feature", "properties": { "NAME": "CHASE CENTER", "TEAM": "GOLDEN STATE WARRIORS" }, "geometry": { "type": "Point", "coordinates": [ -122.202901691875041, 37.750292704739444 ] } },
{ "type": "Feature", "properties": { "NAME": "SMOOTHIE KING CENTER", "TEAM": "NEW ORLEANS PELICANS" }, "geometry": { "type": "Point", "coordinates": [ -90.082109716279177, 29.949036338073981 ] } },
{ "type": "Feature", "properties": { "NAME": "MODA CENTER", "TEAM": "PORTLAND TRAIL BLAZERS" }, "geometry": { "type": "Point", "coordinates": [ -122.666920079238366, 45.531650067743044 ] } },
{ "type": "Feature", "properties": { "NAME": "AMERICAN AIRLINES CENTER", "TEAM": "DALLAS MAVERICKS" }, "geometry": { "type": "Point", "coordinates": [ -96.810430004690502, 32.790620046136176 ] } },
{ "type": "Feature", "properties": { "NAME": "TD GARDEN", "TEAM": "BOSTON CELTICS" }, "geometry": { "type": "Point", "coordinates": [ -71.062227701799685, 42.366319335737309 ] } },
{ "type": "Feature", "properties": { "NAME": "BALL ARENA", "TEAM": "DENVER NUGGETS" }, "geometry": { "type": "Point", "coordinates": [ -105.007688173025016, 39.748683806814583 ] } },
{ "type": "Feature", "properties": { "NAME": "STATE FARM ARENA", "TEAM": "ATLANTA HAWKS" }, "geometry": { "type": "Point", "coordinates": [ -84.396309984447811, 33.757299966635458 ] } },
{ "type": "Feature", "properties": { "NAME": "UNITED CENTER", "TEAM": "CHICAGO BULLS" }, "geometry": { "type": "Point", "coordinates": [ -87.674294067016461, 41.880717471740617 ] } },
{ "type": "Feature", "properties": { "NAME": "MADISON SQUARE GARDEN", "TEAM": "NEW YORK KNICKS" }, "geometry": { "type": "Point", "coordinates": [ -73.993468404346231, 40.750518100968563 ] } },
{ "type": "Feature", "properties": { "NAME": "STAPLES CENTER", "TEAM": "LOS ANGELES CLIPPERS \/ LAKERS" }, "geometry": { "type": "Point", "coordinates": [ -118.26721697864177, 34.043052498313102 ] } },
{ "type": "Feature", "properties": { "NAME": "TARGET CENTER", "TEAM": "MINNESOTA TIMBERWOLVES" }, "geometry": { "type": "Point", "coordinates": [ -93.276128044662357, 44.979561078975209 ] } },
{ "type": "Feature", "properties": { "NAME": "PHOENIX SUNS ARENA", "TEAM": "PHOENIX SUNS" }, "geometry": { "type": "Point", "coordinates": [ -112.071286769251373, 33.445830578634933 ] } },
{ "type": "Feature", "properties": { "NAME": "SPECTRUM CENTER", "TEAM": "CHARLOTTE HORNETS" }, "geometry": { "type": "Point", "coordinates": [ -80.839427135106519, 35.225172092143829 ] } },
{ "type": "Feature", "properties": { "NAME": "BANKERS LIFE FIELDHOUSE", "TEAM": "INDIANA PACERS" }, "geometry": { "type": "Point", "coordinates": [ -86.155569975707422, 39.764010017168992 ] } },
{ "type": "Feature", "properties": { "NAME": "TOYOTA CENTER", "TEAM": "HOUSTON ROCKETS" }, "geometry": { "type": "Point", "coordinates": [ -95.362180046384523, 29.750780019869286 ] } },
{ "type": "Feature", "properties": { "NAME": "AT&T CENTER", "TEAM": "SAN ANTONIO SPURS" }, "geometry": { "type": "Point", "coordinates": [ -98.437488798341974, 29.426930629063865 ] } },
{ "type": "Feature", "properties": { "NAME": "CHESAPEAKE ENERGY ARENA", "TEAM": "OKLAHOMA CITY THUNDER" }, "geometry": { "type": "Point", "coordinates": [ -97.515020078190361, 35.463485473976405 ] } },
{ "type": "Feature", "properties": { "NAME": "SCOTIABANK ARENA", "TEAM": "TORONTO RAPTORS" }, "geometry": { "type": "Point", "coordinates": [ -79.379023537843366, 43.643415473928897 ] } },
{ "type": "Feature", "properties": { "NAME": "AMWAY CENTER", "TEAM": "ORLANDO MAGIC" }, "geometry": { "type": "Point", "coordinates": [ -81.383890000217491, 28.539220000268159 ] } },
{ "type": "Feature", "properties": { "NAME": "FEDEX FORUM", "TEAM": "MEMPHIS GRIZZLIES" }, "geometry": { "type": "Point", "coordinates": [ -90.050384926892932, 35.138220847997069 ] } },
{ "type": "Feature", "properties": { "NAME": "CAPITAL ONE ARENA", "TEAM": "WASHINGTON WIZARDS" }, "geometry": { "type": "Point", "coordinates": [ -77.021032075346838, 38.898171663198902 ] } },
{ "type": "Feature", "properties": { "NAME": "WELLS FARGO CENTER", "TEAM": "PHILADELPHIA 76ERS" }, "geometry": { "type": "Point", "coordinates": [ -75.171858773051795, 39.90116035701044 ] } },
{ "type": "Feature", "properties": { "NAME": "BARCLAYS CENTER", "TEAM": "BROOKLYN NETS" }, "geometry": { "type": "Point", "coordinates": [ -73.975230339425778, 40.682573251133562 ] } },
{ "type": "Feature", "properties": { "NAME": "LITTLE CAESARS ARENA", "TEAM": "DETROIT PISTONS" }, "geometry": { "type": "Point", "coordinates": [ -83.055262508069831, 42.340887546283497 ] } },
{ "type": "Feature", "properties": { "NAME": "FISERV FORUM", "TEAM": "MILWAUKEE BUCKS" }, "geometry": { "type": "Point", "coordinates": [ -87.917318000266746, 43.045050000143753 ] } }
]
}
